,City,Cloudiness (%),Country,Date,Humidity (%),Latitude,Longitude,Max Temp (F),Wind Speed (mph)
0,Ushuaia,75,AR,1545166800,71,-54.81,-68.31,53.6,26.4
1,Rikitea,100,PF,1545168686,100,-23.12,-134.97,73.34,16.93
2,Santa Rosa,0,AR,1545168559,46,-36.62,-64.29,77.98,10.78
3,Carnarvon,24,ZA,1545167923,23,-30.97,22.13,66.59,10.0
4,Mataura,48,NZ,1545167923,78,-46.19,168.86,53.23,12.46
5,Vao,88,EE,1545168144,95,59.1,26.19,26.41,4.97
6,Avarua,32,CK,1545167924,100,-21.21,-159.78,79.37,10.78
7,Atar,88,MR,1545168145,22,20.52,-13.05,65.24,6.08
8,Okhotsk,80,RU,1545168145,93,59.36,143.24,15.79,16.26
9,Hit,88,IQ,1545168688,98,33.64,42.83,50.98,4.63
10,Mackenzie,1,CA,1545166800,70,55.34,-123.09,32.0,5.82
11,George Town,75,MY,1545166800,94,5.42,100.33,78.8,5.41
12,Cape Town,20,ZA,1545166800,82,-33.93,18.42,66.2,6.93
13,Busselton,0,AU,1545168689,100,-33.64,115.35,56.42,13.47
14,Sinnamary,80,GF,1545168689,100,5.38,-52.96,77.3,10.0
15,Longyearbyen,40,NO,1545166200,69,78.22,15.63,37.4,28.86
16,Qaanaaq,64,GL,1545168690,89,77.48,-69.36,1.21,9.55
17,Samarai,36,PG,1545168690,100,-10.62,150.67,84.59,5.97
18,Vaini,0,IN,1545168690,63,15.34,74.49,63.13,6.98
19,Victoria,75,BN,1545166800,88,5.28,115.24,78.8,2.24
20,Oga,8,NG,1545168690,66,8.18,5.65,68.71,2.73
21,Tomatlan,44,MX,1545168691,62,19.93,-105.25,80.0,3.18
22,Hermanus,92,ZA,1545168691,83,-34.42,19.24,62.9,2.73
23,Bredasdorp,92,ZA,1545166800,77,-34.53,20.04,69.8,8.05
24,Asyut,0,EG,1545163200,71,27.18,31.19,53.6,3.36
25,Bowmore,1,US,1545167700,34,34.94,-79.3,55.94,3.36
26,Seydi,0,NE,1545166800,30,13.34,7.75,69.8,4.7
27,Atuona,64,PF,1545168692,100,-9.8,-139.03,81.35,14.25
28,Charters Towers,80,AU,1545168692,96,-20.07,146.27,74.29,4.41
29,Mildura,68,AU,1545166800,46,-34.18,142.16,73.4,9.17
30,Yellowknife,20,CA,1545166800,84,62.45,-114.38,6.8,10.29
31,Shimoda,0,JP,1545168692,100,34.7,138.93,53.99,22.08
32,Helong,0,CN,1545168693,77,25.94,116.13,33.56,2.39
33,Vilyuysk,20,RU,1545168693,37,63.75,121.63,-25.21,6.2
34,Saldanha,36,PT,1545168693,93,41.42,-6.55,35.72,4.97
35,Port Alfred,36,ZA,1545168693,85,-33.59,26.89,70.06,21.07
36,Luderitz,0,NA,1545168693,87,-26.65,15.16,59.12,10.45
37,Indramayu,8,ID,1545168693,93,-4.05,103.78,64.66,3.51
38,Manado,40,ID,1545166800,94,1.49,124.85,77.0,4.7
39,Nikolskoye,75,RU,1545166800,85,59.7,30.79,19.4,6.71
40,Hilo,1,US,1545166380,62,19.71,-155.08,78.98,8.05
41,Maragogi,44,BR,1545168694,89,-9.01,-35.22,76.36,9.44
42,Mufumbwe,36,ZM,1545168695,92,-13.68,24.8,65.38,2.73
43,Bluff,0,AU,1545168695,72,-23.58,149.07,79.1,10.67
44,Joshimath,0,IN,1545168695,89,30.57,79.57,-6.9,1.83
45,Albany,20,US,1545166620,47,42.65,-73.75,26.06,13.87
46,Dunedin,92,NZ,1545168544,100,-45.87,170.5,46.25,4.97
47,Boa Vista,68,BR,1545168697,72,2.82,-60.67,80.86,9.1
48,La Ronge,90,CA,1545166800,92,55.1,-105.3,21.2,6.93
49,Ponta do Sol,48,BR,1545168697,41,-20.63,-46.0,85.31,2.28
50,Dikson,32,RU,1545168697,99,73.51,80.55,-0.46,30.36
51,Barrow,0,AR,1545168697,27,-38.31,-60.23,76.94,9.44
52,Mahebourg,75,MU,1545166800,83,-20.41,57.7,77.0,12.75
53,Bambanglipuro,76,ID,1545168698,100,-7.95,110.28,70.24,3.18
54,San Carlos de Bariloche,0,AR,1545166800,11,-41.13,-71.31,78.8,23.04
55,Concordia,40,AR,1545163200,88,-31.4,-58.02,71.6,8.05
56,Ancud,0,CL,1545166800,59,-41.87,-73.83,64.4,5.82
57,Mamou,0,GN,1545168699,82,10.37,-12.08,66.41,2.62
58,Ahuimanu,20,US,1545166620,76,21.44,-157.84,78.98,6.93
59,Kem,44,UG,1545168699,41,2.68,33.77,77.66,10.22
60,Gazojak,88,TM,1545168699,80,41.19,61.4,27.71,10.78
61,Isangel,100,VU,1545168700,100,-19.55,169.27,77.53,8.66
62,Arak,0,IR,1545168700,98,34.1,49.69,25.06,3.62
63,Grand-Lahou,68,CI,1545168700,84,5.24,-5.0,78.92,3.62
64,Zyryanovsk,64,KZ,1545168700,75,49.74,84.27,3.77,2.17
65,Grand Gaube,75,MU,1545166800,83,-20.01,57.66,77.0,12.75
66,Antsohihy,0,MG,1545168700,79,-14.88,47.99,74.38,8.43
67,San Pedro,92,AR,1545168486,73,-33.68,-59.66,73.48,11.12
68,Itarema,24,BR,1545168702,91,-2.92,-39.92,78.2,9.22
69,New Scone,40,GB,1545168000,87,56.42,-3.41,46.4,6.93
70,Puerto Ayora,20,EC,1545166800,66,-0.74,-90.35,84.2,12.75
71,Merrill,90,US,1545166380,76,42.03,-121.6,44.06,12.75
72,Whitehorse,75,CA,1545166800,92,60.72,-135.06,21.2,2.24
73,Fomboni,0,KM,1545168703,100,-12.28,43.74,82.79,5.97
74,Upernavik,64,GL,1545168703,100,72.79,-56.15,15.34,6.76
75,Pisco,0,PE,1545166800,30,-13.71,-76.2,71.6,8.05
76,Damghan,0,IR,1545168703,86,36.17,54.34,30.32,2.84
77,Kavieng,24,PG,1545168703,100,-2.57,150.8,81.53,1.28
78,Geraldton,90,CA,1545166800,74,49.72,-86.95,28.4,11.41
79,Sept-Iles,20,CA,1545166800,58,50.2,-66.38,24.8,18.34
80,Kieta,56,PG,1545168704,100,-6.22,155.63,80.72,3.4
81,Lebu,36,ET,1545168704,83,8.96,38.73,43.73,2.84
82,Kapaa,20,US,1545166560,64,22.08,-159.32,78.98,14.99
83,Kodiak,1,US,1545166500,57,39.95,-94.76,57.92,12.75
84,Saskylakh,0,RU,1545168704,0,71.97,114.09,-41.14,9.78
85,Georgetown,75,GY,1545163200,74,6.8,-58.16,84.2,11.41
86,Hithadhoo,68,MV,1545168705,100,-0.6,73.08,82.97,8.99
87,Mehamn,40,NO,1545166200,85,71.03,27.85,32.0,8.05
88,Baiyin,0,CN,1545166800,56,36.55,104.13,14.0,4.47
89,Arraial do Cabo,0,BR,1545163200,66,-22.97,-42.02,87.8,13.87
90,Lujan,88,AR,1545168706,18,-46.57,-67.67,83.51,15.03
91,Khatanga,44,RU,1545168707,75,71.98,102.47,-17.43,16.37
92,Punta Arenas,75,CL,1545166800,58,-53.16,-70.91,59.0,18.34
93,Luwuk,8,ID,1545168707,100,-0.95,122.79,76.04,4.18
94,Allada,20,BJ,1545166800,79,6.67,2.15,84.2,6.93
95,East London,8,ZA,1545168700,100,-33.02,27.91,74.11,24.32
96,Tiksi,24,RU,1545168707,40,71.64,128.87,-26.52,3.4
97,ChengDe,0,CN,1545168707,61,40.97,117.93,6.29,2.51
98,Butaritari,80,KI,1545168708,100,3.07,172.79,85.18,16.71
99,Aden,0,YE,1545168708,97,12.79,45.03,79.33,7.31
100,Alekseyevka,90,RU,1545166800,92,53.25,50.49,15.8,2.24
101,Sao Filipe,32,CV,1545168708,97,14.9,-24.5,74.06,14.92
102,Katsuura,20,JP,1545166800,86,33.93,134.5,41.0,6.93
103,Ilulissat,75,GL,1545166200,61,69.22,-51.1,17.6,4.7
104,Saint-Philippe,40,CA,1545166800,57,45.36,-73.48,21.74,17.22
105,Paracuru,0,BR,1545163200,70,-3.41,-39.03,84.2,12.75
106,Luena,12,AO,1545168710,89,-11.78,19.91,64.07,3.06
107,Port Elizabeth,1,US,1545166500,40,39.31,-74.98,41.0,11.41
108,Pevek,0,RU,1545168710,100,69.7,170.27,-33.85,5.64
109,Norman Wells,90,CA,1545166800,83,65.28,-126.83,-4.01,5.82
110,Provideniya,0,RU,1545166800,69,64.42,-173.23,-7.61,4.47
111,Pangnirtung,75,CA,1545166800,71,66.15,-65.72,8.6,11.41
112,Esperance,20,TT,1545166800,69,10.24,-61.45,82.4,11.41
113,Bandarbeyla,64,SO,1545168711,100,9.49,50.81,75.59,18.84
114,Kaeo,32,NZ,1545168711,74,-35.1,173.78,67.63,8.32
115,Sohag,0,EG,1545163200,58,26.55,31.7,53.6,3.36
116,Tuatapere,76,NZ,1545168711,100,-46.13,167.69,49.63,13.02
117,Srivaikuntam,80,IN,1545168711,99,8.63,77.91,75.59,8.55
118,Axim,68,GH,1545168590,100,4.87,-2.24,83.06,6.98
119,Mata de Sao Joao,20,BR,1545163200,74,-12.53,-38.3,82.4,11.41
120,Krsko,0,SI,1545166800,100,45.96,15.49,32.0,1.12
121,Ribeira Grande,40,PT,1545166800,62,38.52,-28.7,59.0,8.05
122,Blythe,0,US,1545168712,29,33.61,-114.59,66.73,5.19
123,Bonthe,12,SL,1545168712,73,7.53,-12.5,82.84,5.64
124,Port Lincoln,0,AU,1545168505,89,-34.72,135.86,67.09,21.63
125,Jamestown,20,AU,1545168713,57,-33.21,138.6,70.46,12.24
126,Karla,90,EE,1545168000,92,59.37,24.93,28.4,8.05
127,Kahului,20,US,1545166560,58,20.89,-156.47,80.06,8.05
128,Yar-Sale,44,RU,1545168713,92,66.83,70.83,3.64,24.76
129,Ballitoville,0,ZA,1545166800,64,-29.54,31.21,75.2,4.7
130,Tautira,40,PF,1545166800,70,-17.73,-149.15,86.0,8.05
131,Grindavik,90,IS,1545166800,100,63.84,-22.43,41.0,11.41
132,Bethel,90,US,1545166560,86,60.79,-161.76,6.08,4.7
133,New Norfolk,75,AU,1545166800,58,-42.78,147.06,59.0,5.82
134,Lagoa,75,PT,1545166800,88,37.14,-8.45,62.6,9.17
135,Lavrentiya,36,RU,1545168715,100,65.58,-170.99,3.86,18.61
136,El Guayabito,75,HN,1545163200,54,14.78,-85.94,80.6,2.24
137,Najran,0,SA,1545163200,50,17.54,44.22,57.2,2.95
138,Sibolga,36,ID,1545168716,99,1.74,98.78,68.39,2.17
139,Adrar,0,DZ,1545166800,27,27.87,-0.29,62.6,9.17
140,Kapchorwa,0,UG,1545168716,81,1.4,34.45,58.76,3.4
141,Luanda,75,AO,1545166800,83,-8.83,13.24,78.8,8.05
142,Kayerkan,24,RU,1545168716,86,69.35,87.76,-20.26,25.88
143,Lodwar,0,KE,1545168717,66,3.12,35.6,70.24,3.18
144,Severo-Kurilsk,20,RU,1545168717,100,50.68,156.12,28.21,20.07
145,Hualmay,0,PE,1545168717,67,-11.1,-77.61,75.64,5.64
146,San Cristobal,40,EC,1545166800,68,-0.39,-78.55,64.4,17.22
147,Nalut,0,LY,1545168717,83,31.86,10.98,37.39,2.95
148,La Palma,20,CO,1545168718,53,5.36,-74.39,82.16,2.62
149,Faanui,24,PF,1545168718,100,-16.48,-151.75,80.9,6.64
150,Alofi,75,NU,1545166800,83,-19.06,-169.92,82.4,10.29
151,Hamilton,40,BM,1545166500,56,32.3,-64.78,68.0,28.86
152,Port-Gentil,75,GA,1545166800,83,-0.72,8.78,82.4,9.17
153,Byron Bay,32,AU,1545167280,83,-28.65,153.62,75.2,2.24
154,East Moline,1,US,1545167700,43,41.52,-90.44,50.0,9.17
155,Lincoln,1,US,1545167700,51,40.8,-96.67,51.8,11.41
156,Sitka,68,US,1545168720,38,37.17,-99.65,57.41,9.22
157,Chapais,90,CA,1545167940,78,49.78,-74.86,12.2,9.17
158,Guerrero Negro,0,MX,1545168720,62,27.97,-114.04,70.06,7.87
159,Beihai,0,CN,1545166800,79,38.95,121.19,21.2,2.24
160,Hobart,75,AU,1545166800,58,-42.88,147.33,59.0,5.82
161,Mulege,0,MX,1545168721,51,26.88,-111.98,71.14,8.99
162,Mar del Plata,44,AR,1545168445,26,-46.43,-67.52,82.07,11.01
163,Cidreira,92,BR,1545168721,88,-30.17,-50.22,73.16,12.57
164,Kaitangata,48,NZ,1545168721,80,-46.28,169.85,51.16,11.01
165,Linares,0,CL,1545168721,39,-35.85,-71.6,79.78,3.85
166,Haapiti,40,PF,1545166800,70,-17.57,-149.87,86.0,8.05
167,Bontang,44,ID,1545168722,100,0.12,117.47,79.82,1.83
168,Chuy,92,UY,1545168722,87,-33.69,-53.46,67.54,15.37
169,Cardiff,80,GB,1545168000,93,51.48,-3.18,46.4,9.17
170,Dutse,12,NG,1545168722,36,11.76,9.34,64.48,9.22
171,Saint Anthony,90,US,1545166560,69,43.97,-111.68,39.02,11.41
172,Kurilsk,48,RU,1545168723,100,45.23,147.88,32.21,26.33
173,Launceston,90,AU,1545166800,71,-41.43,147.14,57.2,3.36
174,Broken Hill,0,AU,1545166800,34,-31.97,141.45,78.8,18.34
175,Te Anau,100,NZ,1545168723,100,-45.41,167.72,44.41,3.62
176,Bambous Virieux,75,MU,1545166800,83,-20.34,57.76,77.0,12.75
177,Bubaque,12,GW,1545168724,88,11.28,-15.83,84.64,8.43
178,Hami,80,CN,1545168724,66,42.84,93.51,9.08,2.17
179,Santa Isabel,75,CO,1545166800,48,4.71,-75.1,86.0,4.7
180,Camacha,75,PT,1545166800,88,33.08,-16.33,64.4,5.53
181,Portland,40,US,1545166380,59,45.52,-122.67,57.92,11.41
182,Kencong,36,ID,1545168725,95,-7.78,112.24,70.24,4.63
183,Kruisfontein,88,ZA,1545168725,82,-34.0,24.73,66.41,19.06
184,Wattegama,8,LK,1545168725,94,7.35,80.68,63.08,2.62
185,Namtsy,90,RU,1545166800,65,62.72,129.66,-40.01,2.84
186,Alekseyevsk,80,RU,1545168726,68,57.84,108.35,16.51,8.32
187,Xichang,88,CN,1545168726,52,27.88,102.25,55.16,2.95
188,Mwinilunga,64,ZM,1545168726,97,-11.73,24.43,62.14,2.39
189,Clyde River,90,CA,1545166800,84,70.47,-68.59,-0.41,13.87
190,San Patricio,32,PY,1545168727,79,-26.98,-56.83,82.34,2.17
191,Killybegs,24,IE,1545168727,100,54.63,-8.45,46.34,17.83
192,Plettenberg Bay,92,ZA,1545168727,95,-34.05,23.37,65.51,11.12
193,Necochea,0,AR,1545168727,45,-38.55,-58.74,74.15,9.22
194,Xunchang,92,CN,1545168727,96,28.45,104.71,42.43,2.51
195,Antalya,75,TR,1545168000,100,36.9,30.69,51.8,4.7
196,Altay,56,CN,1545168727,62,47.83,88.13,-3.75,2.06
197,Dickinson,1,US,1545166560,35,46.88,-102.79,55.04,17.22
198,Paramonga,20,PE,1545168728,100,-10.68,-77.82,69.92,8.21
199,Chino Valley,1,US,1545167700,33,34.76,-112.45,53.96,6.93
200,Torbay,75,CA,1545166800,93,47.66,-52.73,37.4,13.87
201,Zhigalovo,80,RU,1545168728,70,54.81,105.15,18.17,6.2
202,Sur,0,OM,1545168728,100,22.57,59.53,70.46,3.96
203,Nawada,12,IN,1545168729,93,24.89,85.55,48.46,3.06
204,Eureka,90,US,1545166980,96,40.8,-124.16,57.02,9.17
205,Fez,0,MA,1545166800,81,34.03,-5.02,53.6,10.29
206,Mareeba,20,AU,1545166800,74,-16.99,145.42,80.6,11.41
207,Qaqortoq,48,GL,1545168729,91,60.72,-46.03,24.43,4.07
208,Havelock,1,US,1545166560,48,34.88,-76.9,53.06,5.82
209,Lata,0,IN,1545168730,59,30.78,78.62,24.43,1.61
210,Panikian,92,PH,1545168730,100,13.29,121.15,72.8,9.44
211,Mansa,0,IN,1545166800,54,23.43,72.66,55.4,5.82
212,Rajpipla,0,IN,1545168730,85,21.87,73.5,51.02,3.18
213,Iquitos,75,PE,1545166800,83,-3.75,-73.25,78.8,4.7
214,Macau,0,BR,1545168731,44,-5.11,-36.64,87.74,12.68
215,Egvekinot,24,RU,1545168731,60,66.32,-179.17,-34.53,2.62
216,Mercedes,92,UY,1545168731,87,-33.25,-58.03,70.96,9.33
217,San Quintin,0,PH,1545168731,85,17.54,120.52,67.36,5.41
218,Tornio,90,FI,1545168000,100,61.12,27.27,28.4,4.7
219,Hofn,92,IS,1545168731,99,64.25,-15.21,42.83,16.49
220,Vardo,1,US,1545167700,39,39.62,-77.74,44.6,12.75
221,Burnie,80,AU,1545168732,100,-41.05,145.91,59.89,21.07
222,Iqaluit,90,CA,1545166800,72,63.75,-68.52,15.8,4.7
223,Saint George,75,GR,1545166200,86,39.45,22.34,42.8,5.82
224,Kostomuksha,80,RU,1545168732,88,64.59,30.6,16.28,2.51
225,Luau,24,CD,1545168732,96,-10.7,22.23,65.96,1.95
226,Inongo,12,CD,1545168732,94,-1.93,18.29,73.25,1.39
227,Sao Domingos,12,BR,1545168732,42,-13.4,-46.32,85.85,3.96
228,Iquique,0,CL,1545166800,64,-20.22,-70.14,71.6,18.34
229,Staroshcherbinovskaya,88,RU,1545168733,91,46.63,38.66,30.77,20.74
230,Rafaela,92,AR,1545168557,93,-31.25,-61.49,69.02,10.0
231,Koungheul,0,SN,1545168733,29,13.98,-14.8,77.21,10.67
232,Kangaatsiaq,48,GL,1545168733,100,68.31,-53.46,12.5,9.89
233,Nimes,75,FR,1545166800,81,43.83,4.35,51.8,8.05
234,Port Hedland,0,AU,1545166800,83,-20.31,118.58,71.6,3.85
235,Coolum Beach,24,AU,1545168733,96,-26.53,153.09,75.01,5.41
236,Fortuna,0,ES,1545166800,87,38.18,-1.13,50.0,9.17
237,Havoysund,75,NO,1545166200,100,71.0,24.66,32.0,14.99
238,Lasa,75,CY,1545166800,77,34.92,32.53,60.8,4.7
239,Alta Floresta,40,BR,1545163200,69,-9.87,-56.08,80.6,11.41
240,Sao Gabriel da Cachoeira,20,BR,1545163200,66,-0.13,-67.09,87.8,3.36
241,Acapulco,5,MX,1545166080,66,16.86,-99.88,84.2,9.17
242,Kavaratti,0,IN,1545168734,100,10.57,72.64,83.29,12.12
243,Mannarakkat,40,IN,1545166800,78,10.98,76.47,73.4,3.36
244,Huadian,0,CN,1545168735,57,42.97,126.75,13.22,6.98
245,Salalah,0,OM,1545166200,53,17.01,54.1,77.0,3.36
246,Zhezkazgan,36,KZ,1545168735,78,47.8,67.71,4.18,8.66
247,Lompoc,1,US,1545167700,60,34.64,-120.46,66.02,13.87
248,Leningradskiy,48,RU,1545168735,100,69.38,178.42,-13.24,13.24
249,Novikovo,88,UA,1545168736,100,45.05,34.56,31.58,6.53
250,Nanortalik,48,GL,1545168525,95,60.14,-45.24,24.92,3.18
251,Iskateley,76,RU,1545168736,80,67.68,53.15,16.1,6.53
252,Carbonia,0,IT,1545168000,93,39.17,8.53,53.6,2.24
253,Warrington,20,GB,1545168000,93,53.39,-2.59,42.8,12.75
254,Haines Junction,68,CA,1545168737,81,60.75,-137.51,4.76,1.95
255,Muravlenko,20,RU,1545168737,86,63.79,74.5,13.63,21.18
256,Los Alamos,1,US,1545166380,28,35.88,-106.3,51.98,11.41
257,Tuy Hoa,88,VN,1545168666,100,13.08,109.3,71.86,8.66
258,Goma,76,CD,1545168737,100,-1.67,29.23,57.5,1.05
259,Castro,0,CL,1545166800,59,-42.48,-73.76,64.4,5.82
260,Airai,20,TL,1545168738,93,-8.93,125.41,69.34,0.94
261,Saint-Pierre,0,FR,1545166800,80,48.95,4.24,44.6,17.22
262,Moratuwa,48,LK,1545163800,88,6.77,79.88,77.0,3.36
263,Araouane,0,ML,1545168739,34,18.9,-3.53,60.83,7.99
264,Dingle,8,PH,1545168739,85,11.0,122.67,75.64,14.25
265,Saint-Augustin,90,FR,1545166800,93,44.83,-0.61,51.8,6.93
266,Randolph,90,US,1545166380,69,41.67,-111.18,37.94,14.99
267,Chokurdakh,32,RU,1545168740,69,70.62,147.9,-35.92,3.18
268,Baykit,76,RU,1545168740,78,61.68,96.39,19.93,13.13
269,Kununurra,32,AU,1545166800,88,-15.77,128.74,77.0,3.36
270,Manokwari,8,ID,1545168740,98,-0.87,134.08,83.74,7.99
271,Manggar,8,ID,1545168740,100,-2.88,108.27,73.97,3.18
272,Oriximina,64,BR,1545168741,93,-1.77,-55.87,76.76,3.62
273,Sorland,20,NO,1545166200,59,67.67,12.69,35.6,14.99
274,Tessalit,0,ML,1545168592,35,20.2,1.01,55.79,9.89
275,Nelson Bay,90,AU,1545166800,94,-32.72,152.14,71.6,3.36
276,Pacific Grove,1,US,1545166500,51,36.62,-121.92,60.98,5.82
277,Abbeville,92,FR,1545166800,87,50.11,1.83,44.6,8.05
278,Providencia,40,CO,1545166800,68,1.24,-77.6,71.6,4.7
279,Springfield,40,US,1545166500,41,37.22,-93.29,57.02,10.29
280,Merauke,92,ID,1545168743,100,-8.49,140.4,76.09,6.98
281,Natal,40,BR,1545163200,66,-5.81,-35.21,84.2,20.8
282,Big Rapids,1,US,1545166620,63,43.7,-85.48,35.96,8.05
283,Dieppe,92,FR,1545166800,87,49.92,1.08,42.8,12.75
284,Malkangiri,0,IN,1545168743,93,18.35,81.9,57.95,10.45
285,Port Hardy,90,CA,1545166800,93,50.7,-127.42,44.6,4.7
286,Aksay,75,RU,1545166800,85,47.27,39.86,23.0,20.13
287,Henderson,1,US,1545166680,34,36.04,-114.98,60.08,3.18
288,Skibbereen,40,IE,1545166800,93,51.55,-9.27,39.2,5.82
289,Jacareacanga,75,BR,1545163200,94,-6.22,-57.76,78.8,2.24
290,Agua Verde,75,MX,1545165900,44,22.89,-105.97,80.6,6.93
291,Gorom-Gorom,0,BF,1545168745,31,14.45,-0.24,68.84,9.22
292,Fairbanks,90,US,1545166680,86,64.84,-147.72,-0.05,2.39
293,Aljezur,92,PT,1545168746,100,37.31,-8.8,57.91,13.69
294,La Asuncion,75,EC,1545166800,55,-1.64,-78.74,66.2,11.41
295,West Lafayette,1,US,1545168900,52,40.43,-86.91,44.78,4.7
296,Broome,92,GB,1545168420,100,52.47,1.45,46.4,17.22
297,Brandon,1,US,1545167700,73,43.59,-96.57,42.98,3.36
298,Chipinge,0,ZW,1545168747,87,-20.19,32.62,71.81,2.95
299,Manaus,75,BR,1545163200,100,-3.13,-59.98,75.2,5.82
300,Port Augusta,20,AU,1545166800,69,-32.49,137.76,73.4,1.12
301,Coihaique,40,CL,1545166800,48,-45.58,-72.07,66.2,13.87
302,Azatavan,48,AM,1545168748,87,39.98,44.51,22.13,1.95
303,Saryg-Sep,80,RU,1545168748,69,51.49,95.55,-3.97,2.62
304,Minuri,76,PH,1545168748,95,16.54,121.86,68.44,4.74
305,Nhulunbuy,44,AU,1545166800,83,-12.18,136.78,82.4,3.36
306,Rockingham,75,GB,1545168000,100,52.52,-0.72,44.6,5.82
307,Tapes,100,BR,1545168749,100,-30.67,-51.4,68.75,9.44
308,Teshie,0,GH,1545166800,78,5.58,-0.11,80.6,5.82
309,Samarkand,75,UZ,1545166800,86,39.65,66.98,37.4,4.7
310,Hirara,0,JP,1545168749,100,24.8,125.28,70.06,13.47
311,Jinji,100,CN,1545168749,92,22.16,112.49,54.04,3.62
312,Knysna,92,ZA,1545166800,72,-34.04,23.05,68.0,6.93
313,Tazmalt,0,DZ,1545166800,70,36.39,4.4,48.2,9.17
314,Sault Sainte Marie,20,CA,1545166800,74,46.49,-84.36,28.94,6.93
315,Berlevag,40,NO,1545166200,85,70.86,29.09,28.4,8.05
316,Jijiga,0,ET,1545168750,84,9.35,42.8,41.57,4.52
317,Rawson,0,AR,1545168750,18,-43.3,-65.11,90.58,10.56
318,Bilibino,12,RU,1545168750,0,68.06,166.44,-39.3,2.39
319,Le Port,64,FR,1545168751,61,42.87,1.37,30.28,2.51
320,Beringovskiy,0,RU,1545168751,100,63.05,179.32,-20.22,7.09
321,Mount Isa,0,AU,1545166800,48,-20.73,139.49,84.2,3.36
322,Tekirdag,75,TR,1545166200,86,40.98,27.51,37.4,31.09
323,Amberley,92,NZ,1545166800,93,-43.15,172.73,55.4,17.22
324,Nanlong,92,CN,1545168752,92,31.35,106.05,42.38,2.95
325,Oni,0,GE,1545168752,90,42.59,43.44,25.01,2.39
326,Oume,0,CI,1545163200,88,6.38,-5.42,75.2,7.43
327,Espanola,24,CA,1545168752,66,46.27,-81.77,18.08,3.06
328,Mount Gambier,40,AU,1545166800,93,-37.83,140.78,59.0,5.82
329,Westport,44,IE,1545168753,93,53.8,-9.52,46.07,16.49
330,Kamenka,68,RU,1545168753,83,53.19,44.05,16.19,2.95
331,Souillac,92,FR,1545166800,93,45.6,-0.6,48.2,16.11
332,Katangli,0,RU,1545168753,100,51.71,143.23,7.28,23.09
333,Noumea,0,NC,1545166800,69,-22.28,166.46,78.8,3.36
334,College,90,US,1545166680,86,64.86,-147.8,-0.05,2.39
335,Poso,24,ID,1545168753,100,-1.4,120.75,78.47,4.07
336,Porto Nacional,20,BR,1545163200,41,-10.7,-48.41,93.2,4.7
337,Thompson,90,CA,1545166800,92,55.74,-97.86,19.4,8.05
338,Cap-aux-Meules,90,CA,1545167340,92,47.38,-61.86,30.2,29.97
339,Fenoarivo,20,MG,1545166800,49,-18.93,47.44,73.4,11.41
340,Ostrovnoy,44,RU,1545168754,82,68.05,39.51,13.54,3.18
341,Hobyo,0,SO,1545168755,87,5.35,48.53,77.84,14.81
342,Boguchany,88,RU,1545168755,74,58.38,97.46,19.39,11.79
343,Vetluga,64,RU,1545168755,80,57.85,45.78,4.67,2.62
344,Keti Bandar,0,PK,1545168755,100,24.14,67.45,70.24,9.78
345,Kurtalan,75,TR,1545168000,100,37.93,41.7,46.4,4.7
346,Sioux Lookout,90,CA,1545166800,79,50.1,-91.92,26.6,6.93
347,Kiruna,90,SE,1545166200,92,67.86,20.23,17.6,2.39
348,Palauig,0,PH,1545168756,100,15.44,119.9,72.58,6.87
349,Ayorou,0,NE,1545168756,27,14.73,0.92,67.94,9.66
350,Oranjemund,68,ZA,1545168756,94,-28.55,16.43,61.82,1.72
351,Huangnihe,56,CN,1545168756,54,43.56,128.02,18.04,7.99
352,Hovd,0,NO,1545166200,67,63.83,10.7,30.2,11.41
353,Seymchan,48,RU,1545168756,88,62.93,152.39,-41.14,2.51
354,Juba,90,EE,1545166200,92,57.82,26.93,23.0,3.36
355,Tasiilaq,0,GL,1545166200,50,65.61,-37.64,30.2,9.17
356,Rocha,92,UY,1545168757,78,-34.48,-54.34,66.32,11.23
357,Touros,40,BR,1545163200,69,-5.2,-35.46,82.4,16.11
358,Carutapera,92,BR,1545168757,95,-1.2,-46.02,77.93,8.55
359,Jalu,0,LY,1545168757,67,29.03,21.55,54.35,8.55
360,Tilichiki,36,RU,1545168758,73,60.47,166.1,11.96,13.24
361,Awjilah,24,LY,1545168758,73,29.14,21.3,56.33,11.68
362,Moose Factory,90,CA,1545166800,72,51.26,-80.61,12.2,6.93
363,Christchurch,92,NZ,1545166800,93,-43.53,172.64,55.4,17.22
364,Ondjiva,76,AO,1545168758,29,-17.07,15.73,83.33,7.2
365,Cherskiy,8,RU,1545168758,0,68.75,161.3,-39.07,1.95
366,Morondava,0,MG,1545168759,88,-20.3,44.28,81.76,5.3
367,Boyolangu,36,ID,1545168759,95,-8.09,111.9,70.24,4.63
368,Batagay,24,RU,1545168759,0,67.65,134.64,-42.0,2.73
369,Sobolevo,88,RU,1545168760,83,54.43,31.9,14.75,6.98
370,Itaituba,20,BR,1545163200,59,-4.26,-55.99,89.6,5.82
371,Ayagoz,76,KZ,1545168760,83,47.96,80.43,12.95,4.41
372,Vestmannaeyjar,68,IS,1545168760,100,63.44,-20.27,39.86,3.18
373,Komsomolskiy,44,RU,1545168760,85,67.55,63.78,12.46,13.35
374,Namatanai,24,PG,1545168760,100,-3.66,152.44,82.88,3.62
375,Los Llanos de Aridane,0,ES,1545166800,39,28.66,-17.92,64.4,4.7
376,Letlhakane,20,BW,1545168761,27,-21.42,25.59,79.01,13.02
377,Cayenne,88,GF,1545166800,88,4.94,-52.33,77.0,13.87
378,Ximei,20,TW,1545166800,82,23.74,120.51,59.0,5.82
379,Sire,0,ET,1545168761,67,8.28,39.49,50.66,6.53
380,Talnakh,24,RU,1545168761,86,69.49,88.39,-20.44,21.18
381,Gazli,88,UZ,1545168761,80,40.13,63.45,31.94,9.78
382,Port Blair,36,IN,1545168712,100,11.67,92.75,81.08,10.78
383,Chimbote,12,PE,1545168499,79,-9.08,-78.59,73.88,4.29
384,Aswan,0,EG,1545163200,44,24.09,32.9,59.0,4.7
385,Matagami,0,NG,1545168762,40,9.67,8.4,65.69,7.43
386,Sao Jose da Coroa Grande,44,BR,1545168762,89,-8.9,-35.15,76.36,9.44
387,Bartica,40,GY,1545163200,70,6.41,-58.62,84.2,16.11
388,Aklavik,90,CA,1545166800,77,68.22,-135.01,1.4,10.29
389,Oktyabrskiy,75,RU,1545166800,92,55.61,37.97,12.2,4.47
390,Stutterheim,0,ZA,1545168763,66,-32.57,27.43,64.16,2.95
391,Preobrazheniye,0,RU,1545168763,56,42.9,133.91,15.34,4.85
392,Atherton,40,GB,1545168000,87,53.52,-2.49,42.8,4.7
393,Tuktoyaktuk,90,CA,1545166800,84,69.44,-133.03,6.8,4.7
394,Ust-Maya,24,RU,1545168763,56,60.42,134.54,-19.81,6.76
395,Kande,20,UG,1545166800,94,0.3,32.05,69.8,4.85
396,Pavlogradka,88,RU,1545168764,90,54.2,73.56,17.18,13.91
397,Beipiao,56,CN,1545168764,46,41.8,120.76,22.49,4.52
398,Washougal,75,US,1545166380,66,45.58,-122.35,57.92,13.87
399,Okha,24,RU,1545168764,97,53.59,142.95,1.61,21.85
400,Kolosovka,76,RU,1545168764,88,56.47,73.61,17.41,13.35
401,Anchorage,90,US,1545166680,100,61.22,-149.89,21.92,4.63
402,Garissa,0,KE,1545168765,56,-0.46,39.64,75.59,3.18
403,Lewiston,90,US,1545166560,76,46.42,-117.02,46.94,8.05
404,Kalmunai,12,LK,1545168765,96,7.42,81.82,67.13,4.63
405,Statesville,1,US,1545168000,25,35.78,-80.89,59.0,3.36
406,Aleksandrovskiy Zavod,0,RU,1545168765,57,50.92,117.94,0.31,5.08
407,Nyrob,80,RU,1545168766,88,60.74,56.73,13.36,6.64
408,Bellefontaine,1,US,1545167700,64,40.36,-83.76,39.92,4.63
409,Inhambane,0,MZ,1545168766,95,-23.87,35.38,78.65,15.37
410,Zaraza,92,VE,1545168766,54,9.35,-65.33,86.84,11.01
411,Sri Aman,68,MY,1545166800,94,1.24,111.46,75.2,0.6
412,Ravar,0,IR,1545168766,44,31.27,56.81,34.73,2.17
413,Ashland,1,US,1545166560,51,38.48,-82.64,44.96,3.18
414,Saint-Ambroise,88,FR,1545166800,93,47.25,-0.65,48.2,13.87
415,Lethem,24,GY,1545168767,52,3.38,-59.8,88.46,12.01
416,Makaryev,88,RU,1545168767,88,57.88,43.81,8.72,2.95
417,Faya,0,SA,1545163200,50,18.39,42.45,57.2,3.36
418,Raudeberg,75,NO,1545166200,45,61.99,5.14,48.2,17.22
419,Abu Dhabi,0,AE,1545166800,73,24.47,54.37,69.8,2.24
420,Namibe,68,AO,1545168768,100,-15.19,12.15,72.35,6.42
421,Juneau,90,US,1545166560,96,58.3,-134.42,39.92,4.74
422,Gat,12,SN,1545166800,34,14.69,-16.54,80.6,4.7
423,Dhidhdhoo,0,MV,1545168768,100,6.88,73.1,82.66,9.1
424,Kungurtug,56,RU,1545168769,74,50.6,97.53,-1.68,1.61
425,Nantucket,1,US,1545166560,42,41.28,-70.1,32.0,20.8
426,Port Macquarie,90,AU,1545166800,88,-31.43,152.91,75.2,4.7
427,George,20,NG,1545166800,88,6.63,3.35,82.4,2.24
428,Cabo San Lucas,5,MX,1545165600,33,22.89,-109.91,80.6,6.93
429,La Seyne-sur-Mer,90,FR,1545166800,81,43.1,5.88,55.4,3.36
430,Puerto Quijarro,75,BO,1545166800,59,-19.0,-57.72,93.2,5.53
431,Vila do Maio,40,CV,1545166800,73,15.13,-23.22,73.4,18.34
432,Dno,88,RU,1545168770,88,57.83,29.97,19.21,5.64
433,Forio,0,IT,1545168000,69,40.73,13.86,50.0,4.7
434,Rafai,0,CF,1545168770,50,4.95,23.92,71.18,7.43
435,Stara Vyzhivka,80,UA,1545168771,91,51.44,24.44,20.38,3.4
436,Maceio,20,BR,1545163200,65,-9.67,-35.74,80.6,10.29
437,Sergeyevka,64,KZ,1545168771,83,53.88,67.42,14.71,11.68
438,Marsabit,0,KE,1545168771,74,2.34,37.99,66.28,4.63
439,Vanavara,76,RU,1545168771,75,60.35,102.28,19.93,12.24
440,Praya,90,ID,1545166800,88,-8.71,116.27,77.0,2.73
441,Kharovsk,64,RU,1545168771,78,59.95,40.21,4.99,6.42
442,Ust-Kulom,76,RU,1545168772,87,61.69,53.69,13.85,6.42
443,Aleksandrovka,88,RU,1545168772,91,46.65,38.4,30.77,20.74
444,Yining,92,CN,1545168772,89,29.04,114.56,37.52,2.39
445,Boende,56,CD,1545168772,96,-0.28,20.88,72.89,2.06
446,Umm Kaddadah,20,SD,1545168772,20,13.6,26.69,59.66,12.46
447,Bonavista,0,CA,1545168772,86,48.65,-53.11,37.97,17.6
448,North Platte,1,US,1545166380,39,41.12,-100.77,53.06,9.17
449,Green River,75,US,1545166440,64,41.53,-109.47,37.04,17.22
450,Suchedniow,44,PL,1545168773,93,51.05,20.83,23.84,6.08
451,Vila Velha,0,BR,1545163200,70,-3.71,-38.6,84.2,12.75
452,Muros,75,ES,1545167520,93,42.77,-9.06,48.2,5.82
453,Jiayuguan,36,CN,1545168773,53,39.77,98.29,1.93,1.72
454,Santiago del Estero,80,AR,1545168774,89,-27.8,-64.26,72.62,16.93
455,Peniche,75,PT,1545166800,100,39.36,-9.38,50.0,4.7
456,Nouakchott,0,MR,1545166800,30,18.08,-15.98,71.6,11.41
457,Trud,90,BG,1545166800,100,42.23,24.73,35.6,8.95
458,Coahuayana,0,MX,1545168774,36,18.62,-100.35,80.59,2.95
459,Lorengau,76,PG,1545168774,100,-2.02,147.27,83.83,7.65
460,Lloydminster,20,CA,1545166800,74,53.28,-110.01,30.2,10.29
461,Fujin,20,CN,1545168775,79,47.24,132.03,4.18,10.45
462,Troitsko-Pechorsk,80,RU,1545168775,78,62.71,56.19,23.98,7.43
463,Tura,68,IN,1545168676,99,25.52,90.21,57.46,6.31
464,Imeni Poliny Osipenko,32,RU,1545168775,70,52.42,136.49,-16.35,4.52
465,Camopi,76,GF,1545168775,90,3.17,-52.33,76.4,2.95
466,Deputatskiy,48,RU,1545168775,51,69.3,139.9,-31.69,2.73
467,Astana,90,KZ,1545166800,100,51.13,71.43,10.4,8.95
468,Terrace,75,CA,1545166800,100,54.52,-128.61,35.6,8.05
469,Caraballeda,56,VE,1545168776,100,10.61,-66.85,77.26,13.58
470,Novokayakent,90,RU,1545166800,93,42.39,47.99,39.2,8.95
471,Vostok,64,RU,1545168776,68,46.45,135.83,6.34,5.86
472,Sumenep,24,ID,1545168776,100,-7.02,113.87,80.45,5.97
473,Ribeira Brava,20,PT,1545166800,77,32.65,-17.07,62.6,3.36
474,Guilin,90,CN,1545166800,81,25.28,110.29,51.8,4.41
475,Enshi,92,CN,1545168777,93,30.29,109.48,37.39,2.62
476,Casino,80,AU,1545166800,94,-28.86,153.05,75.2,3.36
477,Shingu,0,JP,1545168777,100,33.72,135.99,49.81,15.03
478,Biak,8,ID,1545168777,100,-0.91,122.88,76.04,4.18
479,Ishigaki,40,JP,1545166800,68,24.34,124.16,64.4,9.17
480,Yumen,12,CN,1545168778,67,40.29,97.04,13.67,4.29
481,Avera,1,US,1545167700,41,33.19,-82.53,64.4,4.7
482,Pavlovsk,40,RU,1545166800,85,53.31,82.99,14.0,11.18
483,Ugoofaaru,0,MV,1545168778,100,5.67,73.0,82.34,9.33
484,Wad Rawah,0,SD,1545168779,53,15.16,33.13,72.94,11.01
485,Yaan,8,NG,1545168779,32,7.38,8.57,75.19,8.43
486,Biu,8,NG,1545168779,34,10.61,12.19,67.22,7.76
487,Sovetskaya Gavan,0,RU,1545168779,100,48.97,140.29,11.87,15.14
488,Belaya Gora,8,RU,1545168779,0,68.54,146.19,-51.67,2.73
489,Salme,0,TD,1545168779,18,13.3,19.7,68.89,11.56
490,Potsdam,0,DE,1545168000,86,52.4,13.06,37.4,8.05
491,Lalitpur,0,IN,1545168780,80,24.69,78.42,46.25,2.95
492,Robertsport,8,LR,1545168780,100,6.75,-11.37,82.66,9.78
493,Diego de Almagro,0,CL,1545168780,46,-26.39,-70.05,76.04,3.62
494,Ukmerge,90,LT,1545166200,86,55.25,24.75,28.4,4.7
495,Mayo,90,CA,1545166800,85,63.59,-135.9,10.4,3.36
496,Prince Rupert,90,CA,1545167940,93,54.32,-130.32,42.8,17.22
497,Waipawa,80,NZ,1545168780,63,-39.94,176.59,66.01,13.8
498,Mersing,76,MY,1545168781,97,2.43,103.84,78.29,3.85
499,Abeche,20,TD,1545168781,19,13.83,20.83,64.48,12.01
500,Nieuw Amsterdam,20,SR,1545166800,94,5.88,-55.08,82.4,6.93
501,Galveston,1,US,1545168900,52,40.58,-86.19,42.98,4.7
502,Pangody,48,RU,1545168781,78,65.85,74.49,4.49,25.88
503,Maraba,20,BR,1545163200,66,-5.35,-49.1,87.8,3.36
504,Kattivakkam,20,IN,1545166800,78,13.22,80.32,71.6,5.82
505,Gilbert,1,US,1545167700,73,47.49,-92.47,32.0,5.82
506,Cananeia,88,BR,1545168782,100,-25.01,-47.93,78.65,6.2
507,Tezu,100,IN,1545168782,100,27.93,96.16,50.53,1.39
508,Gornopravdinsk,76,RU,1545168782,75,60.06,69.92,17.09,9.89
509,Cockburn Town,0,TC,1545168783,100,21.46,-71.14,80.27,6.08
510,Khartoum,0,SD,1545166800,33,15.59,32.54,75.2,17.22
511,Rio Gallegos,75,AR,1545166800,87,-51.62,-69.22,57.2,11.41
512,Margate,75,AU,1545166800,58,-43.03,147.26,59.0,5.82
513,Saint-Paul,0,FR,1545166800,75,45.22,1.9,44.6,6.93
514,La Serena,20,CL,1545166800,63,-29.9,-71.25,66.2,12.75
515,Tigil,68,RU,1545168783,81,57.8,158.67,26.27,14.03
516,Saint-Leu,0,RE,1545166800,65,-21.15,55.28,77.0,4.7
517,Ajdabiya,48,LY,1545168784,67,30.75,20.22,61.78,14.36
518,Srednekolymsk,12,RU,1545168784,0,67.46,153.71,-47.17,2.39
519,Flinders,90,AU,1545166800,100,-34.58,150.85,66.2,5.82
520,Maxixe,0,MZ,1545168785,95,-23.86,35.35,78.65,15.37
521,Tazovskiy,24,RU,1545168785,93,67.47,78.7,-7.66,24.76
522,Verkhnyaya Toyma,80,RU,1545168785,78,62.24,45.0,4.99,3.18
523,Sabha,0,LY,1545168785,71,27.03,14.43,47.15,9.55
524,Kjollefjord,75,NO,1545166200,95,70.95,27.35,32.0,14.99
525,Lewisporte,75,CA,1545166800,90,49.25,-55.06,35.6,14.99
526,Umm Bab,1,QA,1545166560,67,25.21,50.81,63.5,2.95
527,Dukat,80,RS,1545168786,87,42.44,22.31,20.15,2.28
528,Brigham City,90,US,1545167400,67,41.51,-112.02,44.96,3.18
529,Ginir,0,ET,1545168786,55,7.14,40.71,56.78,5.97
530,Santa Cruz del Norte,40,CU,1545166500,65,23.15,-81.92,77.0,10.29
531,Pucallpa,75,PE,1545166800,331,-8.38,-74.54,35.6,4.7
532,Ahipara,80,NZ,1545168786,83,-35.17,173.16,66.5,10.11
533,Walvis Bay,0,NA,1545166800,87,-22.95,14.51,60.8,5.82
534,Salinopolis,92,BR,1545168787,100,-0.61,-47.36,78.29,12.24
535,Mlonggo,64,ID,1545168787,100,-6.53,110.7,74.56,4.41
536,Delijan,0,IR,1545168787,82,33.99,50.69,24.11,2.17
537,Linqing,0,CN,1545168787,73,36.85,115.71,27.94,10.56
538,Eyrarbakki,90,IS,1545166800,80,63.86,-21.15,41.0,5.82
539,Bahir Dar,0,ET,1545168788,68,11.59,37.39,49.99,4.18
540,Coquimbo,20,CL,1545166800,63,-29.95,-71.34,66.2,12.75
541,Dabakala,0,CI,1545168788,51,8.36,-4.43,76.36,5.19
542,Huarmey,8,PE,1545168788,59,-10.07,-78.15,75.86,3.96
543,Kutum,24,SD,1545168788,25,14.2,24.66,52.46,10.78
544,Tagusao,80,PH,1545168789,96,9.19,117.81,78.83,8.77
