,City,Cloudiness (%),Country,Date,Humidity (%),Latitude,Longitude,Max Temp (F),Wind Speed (mph)
0,Arraial do Cabo,20,BR,1545170400,74,-22.97,-42.02,78.8,4.7
1,Solwezi,88,ZM,1545174922,98,-12.18,26.4,62.11,2.91
2,Pevek,0,RU,1545174922,100,69.7,170.27,-34.19,4.47
3,Dikson,36,RU,1545174923,98,73.51,80.55,-0.08,27.29
4,Cordoba,24,CO,1545174923,59,5.59,-73.79,56.62,1.12
5,Tasiilaq,0,GL,1545173400,68,65.61,-37.64,28.4,4.7
6,Mahibadhoo,68,MV,1545174950,100,3.78,72.97,81.64,7.16
7,Diamantino,20,BR,1545174923,74,-14.4,-56.44,79.17,4.25
8,Auki,0,NG,1545174951,50,12.18,6.51,59.41,5.37
9,Luderitz,0,NA,1545174951,91,-26.65,15.16,57.7,9.4
10,Nome,1,US,1545173700,77,30.04,-94.42,61.16,8.05
11,Kalmunai,24,LK,1545174951,97,7.42,81.82,66.93,4.36
12,Yellowknife,90,CA,1545171780,84,62.45,-114.38,8.6,10.29
13,Bethanien,0,NA,1545174924,22,-26.5,17.16,61.17,4.59
14,Yulara,0,AU,1545174000,34,-25.24,130.99,82.4,14.99
15,Mayskiy,90,RU,1545174000,92,43.63,44.06,28.4,2.24
16,Hermanus,92,ZA,1545174925,89,-34.42,19.24,61.84,2.91
17,Bredasdorp,92,ZA,1545174000,73,-34.53,20.04,69.8,4.7
18,Saint-Francois,0,FR,1545172200,66,46.42,3.91,51.8,13.87
19,Rikitea,100,PF,1545174925,100,-23.12,-134.97,73.23,20.02
20,Kapaa,20,US,1545173760,52,22.08,-159.32,80.96,19.46
21,Waipawa,76,NZ,1545174926,63,-39.94,176.59,67.69,12.75
22,Norman Wells,90,CA,1545170400,83,65.28,-126.83,-4.01,5.82
23,Hamilton,75,BM,1545173700,64,32.3,-64.78,68.0,23.04
24,Cape Town,40,ZA,1545174000,88,-33.93,18.42,64.4,6.93
25,Yarim,0,YE,1545174927,71,14.3,44.38,26.74,2.57
26,Hobart,75,AU,1545172200,48,-42.88,147.33,64.4,9.17
27,Wyndham,75,GB,1545173400,93,51.61,-3.54,48.2,8.05
28,Avarua,75,CK,1545174000,78,-21.21,-159.78,82.4,9.17
29,LaBelle,1,US,1545173580,48,26.76,-81.44,68.0,3.36
30,Ambon,92,FR,1545172200,93,47.55,-2.56,50.0,6.93
31,Ushuaia,75,AR,1545174000,61,-54.81,-68.31,50.0,16.11
32,East London,48,ZA,1545174928,100,-33.02,27.91,72.64,24.27
33,Busselton,0,AU,1545174801,100,-33.64,115.35,60.94,11.3
34,Lufilufi,40,WS,1545170400,70,-13.87,-171.6,87.8,11.41
35,Nikolskoye,75,RU,1545174000,92,59.7,30.79,17.6,6.71
36,Vostochnyy,75,RU,1545174000,92,55.82,37.87,14.0,2.24
37,Bharatpur,0,NP,1545174886,88,27.68,84.43,45.01,2.57
38,Zaysan,56,KZ,1545174929,68,47.47,84.87,7.57,3.02
39,Japura,64,ID,1545174929,98,-0.42,102.29,72.73,2.57
40,Parobe,90,BR,1545174000,88,-29.63,-50.83,73.4,10.29
41,Rosarito,20,CO,1545174000,61,4.91,-75.23,78.8,2.24
42,New Norfolk,75,AU,1545172200,48,-42.78,147.06,64.4,9.17
43,Namatanai,20,PG,1545174930,100,-3.66,152.44,84.61,3.58
44,Rio Gallegos,40,AR,1545174000,76,-51.62,-69.22,57.2,11.41
45,Sobolevo,68,RU,1545174930,87,54.43,31.9,13.65,6.15
46,Guerrero Negro,0,MX,1545174930,58,27.97,-114.04,69.58,7.61
47,Kirakira,48,SB,1545174931,100,-10.46,161.92,84.7,8.16
48,Taksimo,24,RU,1545174931,61,56.36,114.84,4.78,4.25
49,Upernavik,64,GL,1545174931,100,72.79,-56.15,15.45,8.72
50,Jamestown,0,AU,1545174931,38,-33.21,138.6,82.77,16.22
51,Mayumba,92,GA,1545174931,100,-3.44,10.65,74.89,5.59
52,Atuona,92,PF,1545174932,100,-9.8,-139.03,81.64,13.42
53,La Ronge,75,CA,1545170400,85,55.1,-105.3,23.0,3.36
54,Faanui,8,PF,1545174932,100,-16.48,-151.75,82.09,5.82
55,Hithadhoo,24,MV,1545174932,100,-0.6,73.08,82.63,8.16
56,Port Alfred,88,ZA,1545174932,92,-33.59,26.89,69.18,14.43
57,Tuktoyaktuk,90,CA,1545170400,84,69.44,-133.03,6.8,3.36
58,Lincoln,75,GB,1545173400,93,53.23,-0.54,44.6,3.36
59,Komsomolskiy,24,RU,1545174933,78,67.55,63.78,6.85,7.38
60,Pringsewu,68,ID,1545174933,92,-5.36,104.98,74.26,2.68
61,Anadyr,8,RU,1545174000,66,64.73,177.51,-29.21,8.95
62,Puerto Escondido,40,MX,1545173040,69,15.86,-97.07,80.6,5.82
63,Omsukchan,80,RU,1545174934,56,62.53,155.8,-13.49,2.68
64,Mahebourg,40,MU,1545174000,78,-20.41,57.7,78.8,12.75
65,Naze,8,NG,1545170400,65,5.43,7.07,77.0,8.28
66,Bethel,90,US,1545173760,83,60.79,-161.76,8.96,5.82
67,Lorengau,64,PG,1545174935,100,-2.02,147.27,81.87,9.28
68,Amuntai,68,ID,1545174935,87,-2.42,115.25,78.67,2.68
69,Pisco,0,PE,1545174000,30,-13.71,-76.2,71.6,5.82
70,Codrington,36,AU,1545174000,61,-28.95,153.24,82.4,3.36
71,Punta Arenas,75,CL,1545174000,76,-53.16,-70.91,51.8,8.05
72,Ayan,92,TR,1545174935,97,40.67,33.6,33.13,2.46
73,Bluff,8,AU,1545174936,52,-23.58,149.07,89.47,11.07
74,Lavrentiya,12,RU,1545174936,100,65.58,-170.99,3.34,18.23
75,Laguna,5,MX,1545172800,15,27.52,-110.01,80.6,6.93
76,Road Town,20,VG,1545174000,73,18.42,-64.62,78.08,3.36
77,Jalu,8,LY,1545174936,85,29.03,21.55,51.31,9.73
78,Ouadda,12,CF,1545174936,32,8.07,22.4,67.47,10.51
79,Ihosy,0,MG,1545174937,92,-22.4,46.13,57.16,3.02
80,Emerald,90,AU,1545170400,62,-23.53,148.16,84.2,4.7
81,Qiryat Shemona,40,IL,1545174000,67,33.21,35.57,60.8,10.29
82,Kalemie,24,CD,1545174937,100,-5.95,29.2,72.78,8.28
83,Port Augusta,0,AU,1545170400,37,-32.49,137.76,84.2,9.17
84,Souillac,68,FR,1545172200,93,45.6,-0.6,48.2,13.87
85,Mount Isa,0,AU,1545174000,28,-20.73,139.49,96.8,18.34
86,Plouzane,75,FR,1545172200,87,48.38,-4.62,50.0,13.87
87,Dicabisagan,88,PH,1545174938,100,17.08,122.42,74.53,12.75
88,Cabo San Lucas,5,MX,1545172800,44,22.89,-109.91,78.8,8.05
89,Salalah,0,OM,1545173400,60,17.01,54.1,75.2,4.7
90,Saint-Philippe,90,CA,1545173700,63,45.36,-73.48,21.74,4.7
91,Hualmay,8,PE,1545174939,86,-11.1,-77.61,68.5,5.03
92,Edgewater,1,US,1545173700,58,28.99,-80.9,63.32,5.82
93,San Jose,24,PH,1545174940,73,15.79,120.99,75.03,5.14
94,Kahului,40,US,1545173760,56,20.89,-156.47,82.94,13.87
95,Georgetown,75,GY,1545174000,78,6.8,-58.16,80.6,6.93
96,Mataura,24,NZ,1545174941,68,-46.19,168.86,58.92,13.09
97,Thompson,90,CA,1545170520,92,55.74,-97.86,19.4,5.82
98,Flin Flon,75,CA,1545170400,79,54.77,-101.88,21.2,3.36
99,Airai,0,TL,1545174942,76,-8.93,125.41,78.63,1.79
100,Ponta do Sol,80,BR,1545174942,63,-20.63,-46.0,76.38,3.02
101,Marzuq,0,YE,1545174942,78,14.4,46.47,37.09,3.02
102,Albany,1,US,1545173820,62,42.65,-73.75,24.08,11.41
103,Tual,64,ID,1545174957,100,-5.67,132.75,80.7,10.85
104,Verkhnevilyuysk,24,RU,1545174958,65,63.45,120.31,-22.67,7.05
105,Vytegra,76,RU,1545174958,80,61.01,36.45,4.47,5.93
106,Avera,1,US,1545173700,40,33.19,-82.53,60.08,3.36
107,Iqaluit,90,CA,1545170400,78,63.75,-68.52,14.0,4.7
108,Carnarvon,20,ZA,1545174958,29,-30.97,22.13,59.28,7.05
109,Hilo,40,US,1545173580,66,19.71,-155.08,80.06,8.05
110,Tokur,56,RU,1545174959,82,53.13,132.9,-20.87,2.13
111,Leningradskiy,44,RU,1545174959,100,69.38,178.42,-14.66,10.96
112,Bend,40,US,1545174180,87,44.06,-121.32,46.4,10.29
113,Shahr-e Babak,0,IR,1545174959,54,30.12,55.12,24.0,3.8
114,Bilma,0,NE,1545174959,64,18.69,12.92,46.9,3.69
115,Te Anau,92,NZ,1545174959,100,-45.41,167.72,46.18,3.69
116,Bayshore Gardens,1,US,1545173700,51,27.43,-82.59,67.82,5.82
117,Ingham,0,AU,1545174960,90,-18.65,146.16,84.07,2.13
118,Nanortalik,44,GL,1545174960,91,60.14,-45.24,25.17,2.68
119,Chippewa Falls,1,US,1545174900,67,44.94,-91.39,37.94,6.93
120,Tiksi,24,RU,1545174960,43,71.64,128.87,-27.71,3.13
121,Kailua,20,US,1545173820,71,21.39,-157.74,80.06,13.87
122,Haines Junction,80,CA,1545174960,86,60.75,-137.51,5.41,2.24
123,Coquimbo,20,CL,1545174000,77,-29.95,-71.34,62.6,8.05
124,Huarmey,8,PE,1545174961,76,-10.07,-78.15,69.13,4.03
125,Borogontsy,12,RU,1545174961,58,62.67,131.17,-33.47,4.92
126,Wuchi,0,NG,1545174961,32,13.33,5.43,65.26,11.18
127,Qaanaaq,68,GL,1545174961,97,77.48,-69.36,1.5,9.62
128,Khatanga,20,RU,1545174961,64,71.98,102.47,-22.22,17.0
129,Kaitangata,36,NZ,1545174962,76,-46.28,169.85,53.88,12.19
130,Petatlan,20,MX,1545172800,66,17.52,-101.27,86.0,8.05
131,Karratha,0,AU,1545174687,50,-20.74,116.85,81.1,4.92
132,Antalaha,100,MG,1545174962,100,-14.9,50.28,73.36,9.4
133,Broome,92,GB,1545173760,93,52.47,1.45,46.4,14.99
134,Victoria,75,BN,1545174000,88,5.28,115.24,78.8,3.36
135,Butaritari,80,KI,1545174964,100,3.07,172.79,85.24,15.99
136,Andreapol,88,RU,1545174964,83,56.65,32.27,13.15,8.39
137,Saint George,75,GR,1545169800,86,39.45,22.34,42.8,2.91
138,Les Cayes,0,HT,1545174687,100,18.19,-73.75,79.75,10.96
139,Santa Cruz de la Palma,0,ES,1545172200,68,28.68,-17.76,64.4,8.05
140,Grindavik,75,IS,1545174000,100,63.84,-22.43,39.2,5.82
141,Sambava,68,MG,1545174965,100,-14.27,50.17,78.18,17.78
142,Tautira,75,PF,1545174000,66,-17.73,-149.15,86.0,8.05
143,Geraldton,90,CA,1545170400,79,49.72,-86.95,28.4,12.75
144,Husavik,44,CA,1545174966,65,50.56,-96.99,17.92,9.62
145,Richards Bay,68,ZA,1545174966,73,-28.77,32.06,76.15,4.36
146,Loandjili,88,CG,1545174966,94,-4.77,11.87,78.4,6.15
147,Adrar,0,DZ,1545170400,29,27.87,-0.29,60.8,12.75
148,Burnie,92,AU,1545174967,100,-41.05,145.91,60.22,19.46
149,Cagliari,0,IT,1545170100,45,46.38,10.88,23.0,4.7
150,Puerto Ayora,75,EC,1545174000,69,-0.74,-90.35,82.4,10.29
151,Cidreira,92,BR,1545174967,92,-30.17,-50.22,71.11,10.63
152,Shubarkuduk,76,KZ,1545174968,82,49.15,56.49,13.47,3.58
153,Port Elizabeth,1,US,1545173760,53,39.31,-74.98,39.92,5.82
154,Tiznit,0,MA,1545174968,83,29.7,-9.73,53.2,3.69
155,Alofi,75,NU,1545174000,79,-19.06,-169.92,84.2,10.29
156,Srednekolymsk,20,RU,1545174968,0,67.46,153.71,-46.84,2.57
157,Port Lincoln,0,AU,1545174969,78,-34.72,135.86,72.73,16.78
158,Maxixe,0,MZ,1545174969,98,-23.86,35.35,77.5,13.31
159,Kommunisticheskiy,48,RU,1545174969,77,61.68,64.48,20.8,8.61
160,Borovskoy,12,KZ,1545174969,77,53.8,64.15,4.96,10.4
161,Mar del Plata,76,AR,1545174970,34,-46.43,-67.52,77.41,12.86
162,Sri Aman,64,MY,1545174000,94,1.24,111.46,75.2,2.8
163,Nikolayevsk-na-amure,80,RU,1545174970,89,53.14,140.72,10.77,21.47
164,Moose Factory,90,CA,1545170400,66,51.26,-80.61,14.0,6.93
165,Beaverlodge,40,CA,1545170400,85,55.21,-119.43,17.6,2.24
166,Alice Springs,0,AU,1545172200,21,-23.7,133.88,91.4,14.99
167,Chokurdakh,24,RU,1545174972,74,70.62,147.9,-37.07,3.13
168,Heze,80,CN,1545174972,86,35.25,115.45,33.58,7.38
169,Vaini,0,IN,1545174972,79,15.34,74.49,60.4,7.38
170,Port Blair,68,IN,1545174972,100,11.67,92.75,79.17,9.95
171,Srikakulam,92,IN,1545174972,100,18.29,83.89,71.52,14.76
172,Severo-Kurilsk,44,RU,1545174973,100,50.68,156.12,28.09,18.45
173,Hofn,76,IS,1545174973,95,64.25,-15.21,43.8,14.76
174,Dingle,0,PH,1545174973,72,11.0,122.67,79.48,14.54
175,Tieling,12,CN,1545174804,75,42.29,123.84,15.4,7.27
176,Bambous Virieux,40,MU,1545174000,78,-20.34,57.76,78.8,12.75
177,Narsaq,44,GL,1545174973,59,60.91,-46.05,6.58,1.79
178,Beringovskiy,0,RU,1545174973,100,63.05,179.32,-19.97,7.16
179,Takapau,76,NZ,1545174973,63,-40.02,176.35,67.69,12.75
180,Sitka,32,US,1545174974,55,37.17,-99.65,49.96,5.7
181,Tumaco,80,CO,1545174974,98,1.8,-78.82,76.51,4.7
182,Ostrovnoy,0,RU,1545174974,90,68.05,39.51,7.98,3.02
183,Barrow,0,AR,1545174974,30,-38.31,-60.23,67.96,8.72
184,Fort Nelson,75,CA,1545170400,84,58.81,-122.69,1.4,2.46
185,Torbay,75,CA,1545170400,93,47.66,-52.73,37.4,14.99
186,Vao,64,EE,1545174975,94,59.1,26.19,24.94,5.59
187,Lazaro Cardenas,40,MX,1545172860,29,28.39,-105.62,60.8,8.39
188,Ketchikan,90,US,1545173760,85,55.34,-131.65,46.94,23.04
189,Saskylakh,0,RU,1545174975,0,71.97,114.09,-41.26,9.51
190,Harlingen,1,US,1545173700,67,26.19,-97.7,71.06,6.93
191,Vanimo,48,PG,1545174975,100,-2.67,141.3,84.25,4.7
192,Ribeira Grande,20,PT,1545172200,58,38.52,-28.7,59.0,8.05
193,Aklavik,90,CA,1545170400,70,68.22,-135.01,1.4,11.41
194,Kizilskoye,0,RU,1545174976,48,52.73,58.89,-8.86,4.25
195,Zavyalovo,90,RU,1545174000,85,54.51,82.45,12.2,13.42
196,Cartagena,56,ES,1545172200,93,37.63,-1.0,46.4,2.24
197,Kodiak,75,US,1545173700,76,39.95,-94.76,51.26,12.75
198,Kavieng,0,PG,1545174976,100,-2.57,150.8,83.35,2.01
199,Bedesa,0,ET,1545174977,84,8.9,40.78,40.47,3.02
200,Amahai,80,ID,1545174977,100,-3.31,129.0,84.34,6.6
201,Crossville,1,US,1545173700,34,35.95,-85.03,50.0,3.36
202,Faro,75,PT,1545172200,93,37.02,-7.94,60.8,10.29
203,Tilichiki,80,RU,1545174977,76,60.47,166.1,14.5,16.22
204,Castro,0,CL,1545174000,67,-42.48,-73.76,60.8,5.82
205,Yar-Sale,36,RU,1545174978,80,66.83,70.83,-0.94,21.81
206,Baker City,90,US,1545173580,85,44.77,-117.83,42.98,8.05
207,Hurricane,1,US,1545173580,35,37.18,-113.29,50.0,3.36
208,Toba,20,JP,1545174000,61,34.47,136.83,48.2,20.8
209,Nouadhibou,20,MR,1545174978,64,20.93,-17.03,65.4,11.97
210,Mersin,75,TR,1545173400,87,36.81,34.63,53.6,13.87
211,Namibe,80,AO,1545174979,100,-15.19,12.15,71.52,7.49
212,Xiongyue,48,CN,1545174979,64,40.18,122.12,15.4,3.13
213,Merced,1,US,1545173580,55,37.3,-120.48,64.4,5.82
214,Kurchum,88,KZ,1545174979,86,48.57,83.65,11.4,2.46
215,Swan Hill,36,AU,1545174979,57,-35.34,143.56,75.12,7.27
216,Ust-Barguzin,80,RU,1545174979,76,53.41,109.03,18.82,8.05
217,Armidale,20,AU,1545174979,87,-30.51,151.67,75.52,2.35
218,Clyde River,90,CA,1545174000,84,70.47,-68.59,-0.41,14.99
219,Ola,64,RU,1545174980,97,59.58,151.3,24.85,36.69
220,Rapid City,1,US,1545174900,39,44.08,-103.23,48.38,9.17
221,Bullhead City,75,US,1545173220,20,35.15,-114.57,68.0,6.93
222,Varzea da Palma,0,BR,1545174980,65,-17.6,-44.73,75.3,2.57
223,Mildura,56,AU,1545174000,34,-34.18,142.16,80.6,13.87
224,Lagoa,75,PT,1545172200,93,37.14,-8.45,60.8,10.29
225,Scarborough,92,GB,1545173400,93,54.28,-0.41,44.6,5.82
226,Lac-Megantic,90,CA,1545172500,78,45.58,-70.88,19.4,4.7
227,Langfang,0,CN,1545174000,67,39.51,116.7,19.4,2.24
228,Rio Grande,100,BR,1545174981,98,-32.03,-52.1,69.31,12.64
229,Porto Novo,40,BR,1545174000,69,-23.68,-45.44,82.4,6.93
230,Sao Filipe,32,CV,1545174981,98,14.9,-24.5,73.72,13.87
231,Mozhaysk,48,RU,1545174982,76,55.5,36.03,5.5,3.02
232,Oytal,92,KZ,1545174982,93,42.91,73.27,19.63,3.91
233,Tuatapere,56,NZ,1545174982,100,-46.13,167.69,53.02,12.64
234,Mabai,80,CN,1545174982,95,23.01,104.4,51.49,2.13
235,Luanda,8,AO,1545174982,91,-8.83,13.24,77.14,6.26
236,Shubarshi,68,KZ,1545174982,81,48.59,57.19,12.07,2.8
237,Fortuna,0,ES,1545172200,87,38.18,-1.13,48.2,6.93
238,Slave Lake,1,CA,1545170400,68,55.28,-114.77,26.6,3.36
239,Charyshskoye,48,RU,1545174983,89,51.4,83.56,10.54,5.7
240,Totness,1,US,1545173760,81,33.74,-80.8,55.58,4.7
241,Aksarka,0,RU,1545174983,75,66.56,67.8,0.33,17.78
242,Poum,64,MK,1545174983,98,41.28,20.71,22.6,1.23
243,Posse,0,BR,1545174984,55,-14.08,-46.36,75.12,3.02
244,Garden City,20,US,1545173460,47,40.73,-73.63,33.98,13.87
245,Moba,56,CD,1545174984,100,-7.04,29.77,65.35,4.36
246,Pangai,75,TO,1545174000,94,-19.8,-174.35,82.4,11.41
247,Bosconia,20,CO,1545174984,59,9.97,-73.89,78.4,1.9
248,Kewanee,1,US,1545173700,66,41.25,-89.92,42.08,12.64
249,Katsuura,20,JP,1545174000,86,33.93,134.5,41.0,6.93
250,Soure,75,PT,1545170400,100,40.06,-8.63,46.4,3.36
251,Sisimiut,80,GL,1545174985,100,66.94,-53.67,6.18,1.9
252,Blagoyevo,68,RU,1545174985,88,63.37,47.92,13.6,2.57
253,Umm Lajj,0,SA,1545174985,100,25.02,37.27,60.31,7.38
254,Ipixuna,75,BR,1545174000,88,-1.76,-48.8,77.0,8.05
255,Acapulco,5,MX,1545173160,66,16.86,-99.88,84.2,5.82
256,Caravelas,0,BR,1545174987,100,-17.73,-39.27,79.84,17.11
257,Hokitika,92,NZ,1545174987,100,-42.72,170.96,61.21,4.92
258,Klaksvik,88,FO,1545173400,93,62.23,-6.59,44.6,11.41
259,Canico,20,PT,1545172200,77,32.63,-16.85,64.4,3.36
260,Maniitsoq,88,GL,1545174988,92,65.42,-52.9,31.2,21.81
261,Mutoko,56,ZW,1545174988,94,-17.4,32.23,66.97,2.68
262,Sungurlu,92,TR,1545174988,100,40.17,34.38,37.0,2.91
263,Rome,0,IT,1545173400,100,41.89,12.48,41.0,2.24
264,Diego de Almagro,0,CL,1545174988,50,-26.39,-70.05,66.97,2.68
265,Kamaishi,40,JP,1545174000,92,39.28,141.86,28.4,3.36
266,Ahome,5,MX,1545173160,31,25.92,-109.18,75.2,19.46
267,Kampong Cham,12,KH,1545174989,76,11.99,105.46,75.48,11.97
268,Ishigaki,20,JP,1545174000,68,24.34,124.16,66.2,10.29
269,Portland,75,US,1545173580,59,45.52,-122.67,57.92,10.29
270,Lichtenburg,44,ZA,1545174989,73,-26.15,26.16,65.67,6.93
271,Gravdal,68,NO,1545173400,70,59.79,5.78,44.6,19.46
272,Yinchuan,8,CN,1545174989,57,38.48,106.21,3.03,2.91
273,Flinders,90,AU,1545174000,100,-34.58,150.85,66.2,1.12
274,Micheweni,36,TZ,1545174990,100,-4.97,39.83,83.08,8.72
275,Lielvarde,90,LV,1545173400,100,56.72,24.81,26.6,6.93
276,Ulladulla,90,AU,1545174000,100,-35.36,150.48,66.2,1.12
277,Labuhan,48,ID,1545174990,91,-2.54,115.51,76.24,1.12
278,Pontes e Lacerda,48,BR,1545174990,90,-15.23,-59.33,76.69,2.8
279,Jamay,75,MX,1545173040,23,20.29,-102.71,75.2,9.17
280,Broken Hill,0,AU,1545174000,25,-31.97,141.45,87.8,18.34
281,Alenquer,20,BR,1545174000,83,-1.95,-54.74,82.4,4.7
282,Plettenberg Bay,92,ZA,1545174991,98,-34.05,23.37,64.68,5.37
283,Lompoc,1,US,1545173760,60,34.64,-120.46,66.2,14.99
284,Kruisfontein,80,ZA,1545174991,90,-34.0,24.73,66.07,8.39
285,Chapleau,75,CA,1545172980,79,47.85,-83.4,19.4,13.87
286,Zhigansk,44,RU,1545174991,39,66.77,123.37,-25.78,5.37
287,Manosque,40,FR,1545172200,76,43.83,5.78,53.6,8.05
288,Linxia,48,CN,1545174992,64,35.6,103.21,10.5,2.46
289,Fairbanks,90,US,1545173880,84,64.84,-147.72,-0.05,3.13
290,Jilin,0,CN,1545174992,63,43.84,126.54,15.18,7.05
291,Camacha,40,PT,1545172200,82,33.08,-16.33,64.4,3.47
292,Tanabe,20,JP,1545174000,65,33.73,135.39,44.6,3.36
293,Vezirkopru,75,TR,1545173400,93,41.14,35.45,41.0,2.13
294,Kingaroy,90,AU,1545174000,78,-26.54,151.84,75.2,9.17
295,Lucea,40,JM,1545174000,69,18.44,-78.17,80.6,17.22
296,Manta,80,RO,1545174993,90,45.1,24.1,24.85,2.91
297,Porosozero,76,RU,1545174993,88,62.72,32.71,11.8,3.02
298,High Level,20,CA,1545174993,94,58.52,-117.13,17.97,3.8
299,Gunjur,0,GM,1545170400,68,13.18,-16.76,71.6,5.82
300,Berlevag,20,NO,1545173400,85,70.86,29.09,28.4,6.93
301,Chuy,88,UY,1545174819,88,-33.69,-53.46,66.61,14.43
302,Peniche,0,PT,1545172200,87,39.36,-9.38,51.8,3.36
303,The Valley,20,AI,1545174000,78,18.22,-63.06,78.8,9.17
304,Kaka,92,TM,1545174994,98,37.35,59.62,30.79,3.02
305,Yenagoa,8,NG,1545174994,86,4.92,6.26,71.43,5.03
306,Lebu,8,ET,1545174994,84,8.96,38.73,41.05,2.24
307,Carmen,12,PH,1545174995,87,7.2,124.8,76.47,3.91
308,Tura,88,IN,1545174995,100,25.52,90.21,56.71,5.37
309,College,90,US,1545173880,84,64.86,-147.8,-0.05,3.13
310,Eureka,75,US,1545173700,100,40.8,-124.16,57.92,6.93
311,Napasar,0,IN,1545174995,72,27.97,73.56,35.7,2.91
312,Bonfim,40,BR,1545170400,48,-20.33,-44.24,84.2,5.82
313,Riyadh,0,SA,1545174000,82,24.63,46.72,57.2,6.93
314,Cherskiy,8,RU,1545174996,0,68.75,161.3,-39.14,1.45
315,Esperance,20,TT,1545174000,78,10.24,-61.45,78.8,6.93
316,Naryan-Mar,76,RU,1545174996,85,67.67,53.09,22.33,8.39
317,Tabou,44,CI,1545174996,100,4.42,-7.36,80.52,8.95
318,Coihaique,75,CL,1545174000,51,-45.58,-72.07,62.6,9.17
319,Huanren,0,CN,1545174997,63,41.26,125.37,2.89,2.35
320,Hauge,90,NO,1545173400,92,59.25,10.99,28.4,3.36
321,Oga,8,NG,1545174997,69,8.18,5.65,65.08,1.23
322,Placido de Castro,48,BR,1545174997,99,-10.34,-67.19,72.33,2.13
323,San Patricio,24,PY,1545174997,88,-26.98,-56.83,78.76,4.59
324,Okha,88,RU,1545174997,97,53.59,142.95,5.5,23.71
325,Northam,20,GB,1545173400,100,51.04,-4.21,46.4,5.82
326,Lodja,76,CD,1545174998,98,-3.52,23.6,69.49,1.9
327,Nishihara,1,JP,1545174000,73,35.74,139.53,42.8,3.36
328,Saldanha,64,PT,1545174998,93,41.42,-6.55,39.03,7.94
329,Teknaf,92,BD,1545174998,100,20.86,92.31,71.38,2.68
330,Sao Joao da Barra,0,BR,1545170400,74,-21.64,-41.05,78.8,13.87
331,Half Moon Bay,20,US,1545174000,77,37.46,-122.43,64.04,6.93
332,Gornopravdinsk,80,RU,1545174999,78,60.06,69.92,18.91,9.84
333,Morgan City,1,US,1545173760,69,29.7,-91.21,61.7,4.7
334,Luebo,36,CD,1545174999,95,-5.35,21.42,71.11,1.9
335,Pueblo Nuevo,0,MX,1545175000,47,23.99,-106.96,77.28,4.25
336,Provideniya,0,RU,1545174000,70,64.42,-173.23,-5.81,4.47
337,Cayenne,75,GF,1545174000,94,4.94,-52.33,77.0,5.7
338,Mudbidri,8,IN,1545174000,73,13.08,74.98,69.8,6.93
339,Salta,90,AR,1545174000,100,-24.79,-65.41,64.4,6.93
340,Freeport,40,BS,1545174000,73,26.54,-78.7,69.8,8.05
341,Taoudenni,0,ML,1545175001,50,22.68,-3.98,52.39,7.61
342,Halol,0,IN,1545174000,58,22.51,73.47,59.0,5.82
343,San Cristobal,75,EC,1545174000,77,-0.39,-78.55,60.8,10.29
344,Tigil,76,RU,1545175001,83,57.8,158.67,27.42,13.31
345,Sorong,56,ID,1545175002,100,-0.86,131.25,81.6,9.95
346,Qaqortoq,56,GL,1545175002,90,60.72,-46.03,24.63,4.36
347,Comodoro Rivadavia,40,AR,1545174000,56,-45.87,-67.48,71.6,2.24
348,Rohnert Park,40,US,1545173700,100,38.34,-122.7,62.96,3.36
349,Ambilobe,36,MG,1545175002,100,-13.19,49.05,70.17,3.13
350,Talnakh,12,RU,1545175002,60,69.49,88.39,-21.5,21.81
351,Mount Gambier,90,AU,1545174000,82,-37.83,140.78,64.4,10.29
352,Dadu,0,PK,1545175002,87,26.73,67.77,46.05,3.02
353,Muroto,20,JP,1545174000,100,33.37,134.14,37.4,8.05
354,Bol,0,TD,1545175003,24,13.47,14.72,64.68,13.2
355,Sherbakul,75,RU,1545174000,92,54.63,72.39,19.4,13.42
356,Sharan,0,AF,1545175003,58,33.15,68.78,7.3,2.35
357,Semey,44,KZ,1545175003,81,50.41,80.25,11.85,3.36
358,Gat,20,SN,1545172200,68,14.69,-16.54,71.6,14.99
359,Sterling,1,US,1545173760,51,39.0,-77.4,44.06,6.38
360,Alcaniz,92,ES,1545175004,88,41.05,-0.13,34.39,2.57
361,Hovd,0,NO,1545173400,63,63.83,10.7,30.2,14.99
362,Marsh Harbour,24,BS,1545174733,100,26.54,-77.06,72.78,7.38
363,Chaiya,0,IN,1545175004,79,29.28,74.48,39.16,2.8
364,Orapa,68,BW,1545175004,26,-21.28,25.37,79.39,9.51
365,Nantucket,1,US,1545173580,48,41.28,-70.1,30.92,12.75
366,Belaya Gora,8,RU,1545174798,0,68.54,146.19,-51.56,2.8
367,Zyryanka,24,RU,1545175005,0,65.73,150.89,-46.79,2.57
368,Horodyshche,90,UA,1545174000,92,50.76,29.29,19.4,4.47
369,Wajima,75,JP,1545174000,100,37.4,136.9,37.4,5.82
370,Pangnirtung,75,CA,1545170400,65,66.15,-65.72,8.6,11.41
371,Novouzensk,44,RU,1545175005,82,50.46,48.14,8.7,3.13
372,Tecoanapa,5,MX,1545173160,66,16.99,-99.26,84.2,5.82
373,Santiago,20,CL,1545174000,34,-33.44,-70.65,78.8,6.93
374,Vila Franca do Campo,20,PT,1545172200,54,37.72,-25.43,57.2,8.05
375,Whitehorse,75,CA,1545170400,92,60.72,-135.06,21.2,2.24
376,Kloulklubed,90,PW,1545173400,88,7.04,134.26,82.4,11.41
377,Rusape,8,ZW,1545175007,94,-18.53,32.12,60.31,2.46
378,Bumbesti-Jiu,44,RO,1545175007,100,45.18,23.38,25.12,0.67
379,Sorland,0,NO,1545175007,100,67.67,12.69,38.26,17.67
380,Svetlaya,0,RU,1545175007,100,46.54,138.33,19.27,20.02
381,Galle,75,US,1545174360,72,29.74,-97.91,64.04,8.05
382,Yamada,40,JP,1545174000,70,36.58,137.08,42.8,11.41
383,Chincha Alta,0,PE,1545174000,30,-13.42,-76.13,71.6,5.82
384,Agadez,0,NE,1545175008,46,16.97,7.99,57.79,11.41
385,Danane,0,CI,1545175008,86,7.26,-8.15,71.07,5.26
386,Krasnyye Chetai,88,RU,1545175008,90,55.69,46.16,13.2,4.14
387,Kiruna,80,SE,1545173400,92,67.86,20.23,17.6,3.36
388,Forestville,90,CA,1545170400,63,48.74,-69.09,26.6,24.16
389,Ancud,0,CL,1545174000,67,-41.87,-73.83,60.8,5.82
390,Lima,0,PE,1545174000,73,-12.06,-77.04,73.4,12.75
391,Srandakan,32,ID,1545175009,100,-7.94,110.25,73.45,3.36
392,Benalla,40,AU,1545174000,54,-36.55,145.99,78.8,5.82
393,Maldonado,75,UY,1545174000,77,-34.91,-54.96,62.6,9.17
394,Gronau,0,DE,1545173400,80,52.21,7.02,41.0,6.93
395,Pelotas,100,BR,1545174897,98,-31.77,-52.34,69.31,12.64
396,Gamba,0,CN,1545175010,54,28.28,88.52,-8.68,5.48
397,Monterey,1,US,1545173700,62,36.6,-121.89,62.96,4.7
398,Rosita,92,NI,1545175010,95,13.92,-84.4,71.2,2.91
399,Cabedelo,20,BR,1545174000,83,-6.97,-34.84,77.0,5.82
400,Ust-Nera,8,RU,1545175010,0,64.57,143.24,-46.84,1.9
401,Goma,48,CD,1545175010,100,-1.67,29.23,57.25,2.35
402,Tamandare,36,BR,1545175011,85,-8.28,-70.75,77.28,2.57
403,Grenville,20,CA,1545170400,62,45.62,-74.6,21.2,4.7
404,Omboue,48,GA,1545174887,100,-1.57,9.26,80.07,5.59
405,Vardo,1,US,1545173580,50,39.62,-77.74,39.2,4.14
406,Bogorodskoye,68,RU,1545175011,66,52.37,140.44,-1.34,11.3
407,Haimen,64,CN,1545175011,93,31.87,121.18,45.78,5.48
408,Manzhouli,8,CN,1545175011,59,49.6,117.43,0.19,7.61
409,Zhuhai,24,CN,1545174000,66,40.71,112.04,15.8,2.24
410,Hasaki,20,JP,1545174000,100,35.73,140.83,35.6,1.12
411,Maracacume,64,BR,1545175012,96,-2.04,-45.96,75.16,5.37
412,Viedma,0,AR,1545175012,20,-40.81,-62.99,75.03,12.97
413,Sherghati,0,IN,1545174000,100,24.57,84.8,50.0,9.17
414,San Blas,8,MX,1545175012,50,21.54,-105.29,76.15,3.02
415,Buta,12,CD,1545175013,83,2.79,24.73,68.59,2.13
416,Abu Kamal,68,SY,1545175013,96,34.45,40.92,47.22,9.28
417,Salinas,1,US,1545173700,62,36.67,-121.66,62.96,4.7
418,Phalombe,68,MW,1545175013,98,-15.81,35.65,67.6,2.68
419,Prince Rupert,90,CA,1545171660,87,54.32,-130.32,44.6,14.99
420,Birjand,0,IR,1545174000,36,32.86,59.22,30.2,4.7
421,Ureki,0,GE,1545174000,71,42.0,41.78,50.0,8.05
422,Jumla,0,NP,1545175014,46,29.28,82.18,7.35,2.35
423,Warmbad,20,DE,1545173400,92,50.67,13.08,28.4,3.36
424,Ilebo,32,CD,1545175014,92,-4.33,20.59,72.33,2.68
425,Manokwari,24,ID,1545175014,96,-0.87,134.08,84.93,6.6
426,Padang,40,ID,1545174000,94,-0.92,100.36,75.2,3.36
427,Chunoyar,88,RU,1545175015,70,57.45,97.32,20.44,11.41
428,Mokhsogollokh,0,RU,1545175015,46,61.4,128.95,-29.15,2.68
429,Bara,8,NG,1545175015,38,10.41,10.6,65.53,9.4
430,Kaitong,0,CN,1545175015,77,44.81,123.15,9.37,6.93
431,Mollendo,0,PE,1545175015,70,-17.03,-72.02,65.17,2.68
432,Shahrud,76,IR,1545175016,81,36.42,54.97,24.27,2.57
433,Strezhevoy,75,RU,1545174000,92,60.73,77.6,15.8,6.71
434,Chicama,75,PE,1545174000,83,-7.84,-79.15,73.4,9.17
435,San Andres,80,PH,1545175017,100,13.32,122.68,78.76,24.05
436,Callaway,1,US,1545173700,82,46.98,-95.91,37.94,3.36
437,Brandon,75,US,1545173760,78,43.59,-96.57,41.0,6.93
438,Skibbereen,20,IE,1545172200,93,51.55,-9.27,39.2,10.29
439,Lloydminster,20,CA,1545170400,74,53.28,-110.01,28.4,8.05
440,Vadlapudi,0,IN,1545175018,93,14.32,79.8,63.19,6.71
441,Vila Velha,20,BR,1545174000,83,-3.71,-38.6,80.6,10.29
442,Udachnyy,48,RU,1545175018,58,66.42,112.4,-21.28,6.15
443,Tongren,100,CN,1545175018,87,27.72,109.18,47.71,2.35
444,Oskemen,75,KZ,1545174000,83,49.96,82.61,-4.01,2.24
445,Byron Bay,44,AU,1545174000,69,-28.65,153.62,82.4,8.05
446,Awjilah,76,LY,1545175019,89,29.14,21.3,55.23,12.3
447,Waingapu,12,ID,1545175019,80,-9.65,120.26,80.43,4.36
448,Laem Sing,36,TH,1545175019,82,12.48,102.07,77.73,8.61
449,Gao,0,ML,1545175019,54,16.28,-0.04,61.12,5.37
450,Ayagoz,88,KZ,1545175019,90,47.96,80.43,11.35,5.26
451,Soyo,88,AO,1545175020,86,-6.13,12.37,78.72,5.26
452,Catuday,0,PH,1545175020,95,16.29,119.81,78.67,6.15
453,Nemuro,0,JP,1545175020,100,43.32,145.57,35.7,26.62
454,High Rock,40,BS,1545174000,73,26.63,-78.28,69.8,8.05
455,Tiarei,75,PF,1545174000,66,-17.53,-149.33,86.0,8.05
456,Fallon,1,US,1545173760,52,46.84,-105.12,42.98,8.05
457,Marystown,92,CA,1545175021,96,47.17,-55.16,37.23,26.51
458,Impfondo,48,CD,1545175021,99,1.62,18.06,71.29,2.24
459,Poronaysk,20,RU,1545175021,77,49.22,143.1,10.27,11.63
460,Chikmagalur,20,IN,1545174825,89,13.32,75.78,59.05,2.68
461,Mindelo,75,PT,1545172200,100,41.31,-8.72,51.8,10.29
462,Sangmelima,8,CM,1545175021,94,2.93,11.98,70.08,3.36
463,Lang Son,92,VN,1545175022,97,21.83,106.73,57.7,1.68
464,Vostok,64,RU,1545175022,69,46.45,135.83,8.07,7.16
465,Los Llanos de Aridane,0,ES,1545172200,68,28.66,-17.92,64.4,8.05
466,Westport,64,IE,1545174880,91,53.8,-9.52,46.05,17.45
467,Yarmouth,20,GB,1545171600,100,50.71,-1.5,41.0,2.24
468,Damghan,0,IR,1545175022,82,36.17,54.34,28.54,2.46
469,Pitimbu,20,BR,1545174000,83,-7.47,-34.81,77.0,5.82
470,Ukiah,90,US,1545174600,89,39.15,-123.21,53.96,6.93
471,Santona,90,ES,1545172200,100,43.44,-3.46,48.2,1.12
472,Jacareacanga,56,BR,1545175023,92,-6.22,-57.76,75.7,2.24
473,Bosaso,92,SO,1545175023,100,11.28,49.18,74.8,5.37
474,Bathsheba,20,BB,1545174000,78,13.22,-59.52,78.8,14.99
475,Cap Malheureux,40,MU,1545174000,78,-19.98,57.61,78.8,12.75
476,Touros,0,BR,1545174000,78,-5.2,-35.46,80.6,6.93
477,Albina,80,GF,1545175024,92,5.5,-54.06,76.15,3.69
478,Mudigere,20,IN,1545175024,89,13.13,75.64,59.05,2.68
479,Copiapo,20,CL,1545174000,68,-27.37,-70.33,64.4,12.75
480,Hami,88,CN,1545175024,78,42.84,93.51,9.42,3.02
481,Lata,0,IN,1545175024,62,30.78,78.62,21.97,1.45
482,Noumea,0,NC,1545174000,54,-22.28,166.46,84.2,5.82
483,Presidente Epitacio,56,BR,1545175024,45,-21.76,-52.12,89.56,6.38
484,Yerbogachen,76,RU,1545175025,86,61.28,108.01,15.49,10.63
485,Sardarshahr,0,IN,1545175025,69,28.43,74.48,34.48,2.68
486,Portlethen,75,GB,1545173400,93,57.05,-2.13,44.6,11.41
487,Bemidji,1,US,1545173700,73,47.48,-94.89,32.54,7.94
488,Saint-Leu,0,RE,1545174000,69,-21.15,55.28,77.0,4.7
489,Lagos,20,NG,1545170400,88,6.46,3.39,82.4,2.24
490,Vulcanesti,92,MD,1545175025,100,45.68,28.4,26.02,12.41
491,Gushikawa,1,JP,1545174000,89,26.35,127.87,60.8,5.82
492,Iquitos,40,PE,1545174000,88,-3.75,-73.25,77.0,2.24
493,Carbonia,0,IT,1545173400,93,39.17,8.53,46.4,4.7
494,Kerman,0,IR,1545174000,64,30.29,57.06,32.0,4.7
495,Tortoli,40,IT,1545170100,70,39.93,9.66,48.2,17.22
496,Teguldet,88,RU,1545175028,77,57.31,88.17,18.82,11.18
497,Kavaratti,0,IN,1545175028,100,10.57,72.64,83.22,14.76
498,Santa Catarina Mita,0,GT,1545173400,34,14.45,-89.74,82.4,2.24
499,Lazo,56,MD,1545175029,81,47.89,27.93,18.19,5.59
500,Mecca,0,SA,1545174907,87,21.43,39.83,63.91,1.57
501,Eravur,92,LK,1545175029,100,7.77,81.61,75.12,2.35
502,Lushoto,100,TZ,1545175029,100,-4.8,38.29,67.47,1.9
503,Xining,24,CN,1545175030,54,36.62,101.77,3.48,2.57
504,Margate,75,AU,1545172200,48,-43.03,147.26,64.4,9.17
505,Aitape,80,PG,1545175030,95,-3.15,142.36,82.54,2.24
506,Santiago del Estero,88,AR,1545175030,95,-27.8,-64.26,68.77,14.2
507,Egvekinot,24,RU,1545175030,57,66.32,-179.17,-33.38,2.68
508,Dukat,68,RS,1545175030,85,42.44,22.31,18.37,2.13
509,Baracoa,0,CU,1545175030,100,20.35,-74.5,74.4,4.36
510,Eden Prairie,1,US,1545173700,72,44.85,-93.47,39.92,8.05
511,Shitanjing,0,CN,1545175031,49,39.23,106.34,-1.93,2.13
512,Chernyshevskiy,68,RU,1545175031,70,63.01,112.47,-11.24,4.36
513,Ust-Ilimsk,88,RU,1545175031,74,57.96,102.73,19.23,10.96
514,Belgrade,90,RS,1545172200,100,44.82,20.46,26.6,1.12
515,Iset,56,RU,1545175032,80,53.85,105.98,13.51,6.15
516,Arica,0,CL,1545174000,73,-18.48,-70.32,69.8,6.93
517,Nouakchott,0,MR,1545172200,17,18.08,-15.98,73.4,9.17
518,Ilhabela,0,BR,1545175032,99,-23.78,-45.36,78.18,3.13
519,Sao Felix do Xingu,64,BR,1545175032,96,-6.64,-51.99,75.57,2.13
520,Orel-Izumrud,0,RU,1545174000,75,43.46,39.92,44.6,8.95
521,Albury,92,AU,1545174000,54,-36.08,146.92,80.6,5.82
522,Onega,76,RU,1545175033,100,63.91,38.09,14.82,5.93
523,Bowen,40,AU,1545174000,66,-20.01,148.25,86.0,8.05
524,Neiafu,40,TO,1545174000,83,-18.65,-173.98,84.2,8.05
525,Goderich,8,CA,1545174753,83,43.74,-81.71,28.18,9.17
526,Atar,76,MR,1545175033,26,20.52,-13.05,61.21,4.25
527,Citta di Castello,0,IT,1545173400,92,43.47,12.23,35.6,5.82
528,Menongue,48,AO,1545175034,93,-14.66,17.68,62.83,2.57
529,Roseburg,1,US,1545173580,66,43.22,-123.34,57.02,4.7
530,Annau,90,TM,1545174000,98,37.89,58.52,33.8,4.7
531,Solnechnyy,0,RU,1545175034,56,50.72,136.64,-1.48,8.05
532,Balkhash,0,KZ,1545175034,84,46.84,74.98,7.08,9.95
533,Shajapur,0,IN,1545175034,77,23.42,76.29,39.07,2.91
534,Coldwater,1,US,1545173820,73,41.94,-85.0,35.42,3.36
535,Celestun,8,MX,1545175035,100,20.87,-90.4,73.99,11.63
536,Suntar,20,RU,1545175035,78,62.16,117.65,-12.86,5.37
